City_ID,City,Lat,Lng,Max Temp,Humidity,Cloudiness,Wind Speed,Country,Date
0,longyearbyen,78.2186,15.6401,8.379999999999995,97,100,0.6,SJ,1721587139
1,grytviken,-54.2811,-36.5092,0.9500000000000455,88,66,4.62,GS,1721587140
2,san luis,-33.295,-66.3356,13.850000000000023,51,95,3.36,AR,1721586902
3,toliara,-23.35,43.6667,20.140000000000043,79,0,4.61,MG,1721587143
4,punta arenas,-53.15,-70.9167,7.840000000000032,75,100,12.08,CL,1721587144
5,adamstown,-25.066,-130.1015,18.80000000000001,66,95,8.88,PN,1721587145
6,olonkinbyen,70.9221,-8.7187,5.910000000000025,98,100,7.71,SJ,1721587146
7,ribeira grande,38.5167,-28.7,25.430000000000007,82,6,4.47,PT,1721587147
8,wynyard,-41.0,145.7167,11.800000000000011,94,100,3.5,AU,1721587148
9,santa cruz,-17.8,-63.1667,32.129999999999995,26,2,6.72,BO,1721586961
10,sabinas,27.85,-101.1167,35.400000000000034,34,0,4.2,MX,1721587151
11,west island,-12.1568,96.8225,27.379999999999995,73,100,8.57,CC,1721587152
12,klyuchi,52.2667,79.1667,19.120000000000005,79,81,4.87,RU,1721587153
13,invercargill,-46.4,168.35,6.1200000000000045,93,100,2.24,NZ,1721587154
14,hawaiian paradise park,19.5933,-154.9731,26.05000000000001,86,48,2.45,US,1721587155
15,carnarvon,-24.8667,113.6333,18.620000000000005,51,0,1.3,AU,1721587156
16,puerto natales,-51.7236,-72.4875,5.760000000000048,90,100,4.78,CL,1721587158
17,saint-joseph,-21.3667,55.6167,19.150000000000034,81,16,2.42,RE,1721587159
18,bethel,41.3712,-73.414,30.52000000000004,54,100,1.34,US,1721587135
19,wakkanai,45.4094,141.6739,20.470000000000027,94,99,14.17,JP,1721587152
20,pacasmayo,-7.4006,-79.5714,19.890000000000043,68,4,7.42,PE,1721587162
21,waitangi,-43.9535,-176.5597,9.900000000000034,99,100,4.02,NZ,1721587163
22,edinburgh of the seven seas,-37.0676,-12.3116,10.160000000000025,64,95,14.81,SH,1721587164
23,aasiaat,68.7098,-52.8699,4.1299999999999955,92,100,2.08,GL,1721587166
24,bilibino,68.0546,166.4372,10.480000000000018,91,100,2.05,RU,1721587167
25,port-aux-francais,-49.35,70.2167,3.8500000000000227,97,100,11.4,TF,1721587168
26,jwaneng,-24.6004,24.7303,12.75,20,15,2.29,BW,1721587169
27,puerto ayora,-0.7393,-90.3518,22.410000000000025,75,57,6.02,EC,1721587170
28,tiksi,71.6872,128.8694,4.580000000000041,83,100,1.52,RU,1721587171
29,hithadhoo,-0.6,73.0833,29.340000000000032,73,6,4.85,MV,1721587172
30,hell-ville,-13.4,48.2667,24.730000000000018,71,8,0.71,MG,1721587174
31,albany,42.6001,-73.9662,28.58000000000004,56,99,1.34,US,1721587069
32,ushuaia,-54.8,-68.3,4.07000000000005,97,96,2.82,AR,1721587176
33,jean-rabel,19.8533,-73.1917,32.94,58,19,4.7,HT,1721587177
34,georgetown,5.4112,100.3354,26.850000000000023,87,100,0.86,MY,1721587178
35,hamilton,39.1834,-84.5333,28.28000000000003,61,100,0.45,US,1721587179
36,strathdale,-36.7632,144.3169,8.760000000000048,68,100,1.64,AU,1721587180
37,port elizabeth,-33.918,25.5701,8.939999999999998,71,0,1.63,ZA,1721587030
38,kupang,-10.1667,123.5833,22.960000000000036,74,2,5.57,ID,1721587183
39,bredasdorp,-34.5322,20.0403,7.170000000000016,86,0,0.69,ZA,1721587184
40,columbus,39.9612,-82.9988,28.610000000000014,48,100,0.45,US,1721586535
41,iqaluit,63.7506,-68.5145,15.390000000000043,55,9,2.24,CA,1721587186
42,fale old settlement,-9.3852,-171.2468,28.189999999999998,68,55,8.25,TK,1721587187
43,conceicao das alagoas,-19.9147,-48.3883,30.5,18,0,2.42,BR,1721587188
44,kingston,17.997,-76.7936,33.420000000000016,68,73,4.77,JM,1721586578
45,burela de cabo,43.65,-7.4,17.24000000000001,69,4,1.84,ES,1721587191
46,yellowknife,62.456,-114.3525,25.230000000000018,47,13,3.58,CA,1721587192
47,concordia,-31.393,-58.0209,20.99000000000001,73,92,0.98,AR,1721587193
48,khanty-mansiysk,61.0042,69.0019,12.760000000000048,65,100,6.15,RU,1721587194
49,turpan,42.9333,89.1667,36.420000000000016,22,100,1.23,CN,1721587151
50,ilulissat,69.2167,-51.1,6.220000000000027,71,100,1.03,GL,1721587197
51,chonchi,-42.6128,-73.8092,10.620000000000005,70,5,0.67,CL,1721587199
52,kayangel,8.0823,134.7173,28.04000000000002,76,100,5.15,PW,1721587200
53,homer,59.6425,-151.5483,15.580000000000041,86,100,0.83,US,1721587201
54,badger,64.8,-147.5333,20.04000000000002,61,32,0.68,US,1721587202
55,ambodifotatra,-16.9833,49.85,23.810000000000002,73,19,3.37,MG,1721587203
56,papatowai,-46.5619,169.4708,7.3799999999999955,82,93,5.96,NZ,1721587204
57,usogorsk,63.4106,48.6872,12.82000000000005,60,12,1.98,RU,1721587205
58,college,64.8569,-147.8028,20.260000000000048,50,38,0.71,US,1721587207
59,polyarnyy,69.1989,33.4478,18.960000000000036,66,92,1.7,RU,1721587208
60,dilling,12.05,29.65,24.82000000000005,78,100,4.14,SD,1721587209
61,puerto aysen,-45.4,-72.7,6.800000000000011,100,100,2.92,CL,1721587210
62,egilsstadir,65.2653,-14.3948,10.910000000000025,73,100,2.8,IS,1721587211
63,bamboo flat,11.7,92.7167,27.379999999999995,83,100,7.38,IN,1721587212
64,dilijan,40.741,44.8636,16.200000000000045,85,45,0.94,AM,1721587213
65,vakhrushi,58.6847,50.0261,14.360000000000014,56,0,3.86,RU,1721587215
66,saipan,15.1355,145.701,29.04000000000002,76,100,4.81,MP,1721587216
67,avarua,-21.2078,-159.775,23.410000000000025,63,45,9.28,CK,1721587217
68,talnakh,69.4865,88.3972,6.580000000000041,74,0,5.05,RU,1721587218
69,cambria,35.5641,-121.0808,30.980000000000018,56,27,6.02,US,1721587219
70,east london,-33.0153,27.9116,15.020000000000039,57,99,1.63,ZA,1721587220
71,fada,7.25,4.0667,22.450000000000045,96,44,1.79,NG,1721587221
72,dudinka,69.4058,86.1778,4.430000000000007,84,4,4.37,RU,1721587223
73,ivdel',60.6911,60.4206,10.189999999999998,75,100,2.38,RU,1721587224
74,codrington,-38.2667,141.9667,11.850000000000023,94,100,6.02,AU,1721587225
75,lawas,13.764,121.0566,26.170000000000016,91,100,6.55,PH,1721587226
76,troitsko-pechorsk,62.7084,56.1964,10.629999999999995,70,11,1.02,RU,1721587227
77,awjilah,29.1081,21.2869,33.23000000000002,26,0,8.41,LY,1721587228
78,vorgashor,67.5833,63.95,8.960000000000036,64,100,3.3,RU,1721587229
79,hami,42.8,93.45,31.05000000000001,23,70,8.1,CN,1721587231
80,blackmans bay,-43.0167,147.3167,11.520000000000039,83,100,0.45,AU,1721587232
81,adigrat,14.277,39.462,18.120000000000005,70,19,2.25,ET,1721587233
82,vilyuchinsk,52.9306,158.4028,12.960000000000036,83,93,0.18,RU,1721587234
83,qaqortoq,60.7167,-46.0333,7.860000000000014,80,12,2.14,GL,1721587235
84,pointe-noire,-4.7761,11.8635,21.560000000000002,88,11,3.45,CG,1721587236
85,porto seguro,-16.4497,-39.0647,24.75,64,0,4.01,BR,1721586978
86,utrik,11.2278,169.8474,27.930000000000007,80,85,6.92,MH,1721587240
87,koluszki,51.7387,19.8199,25.930000000000007,57,1,2.12,PL,1721587241
88,gouyave,12.1646,-61.7296,28.900000000000034,72,4,5.81,GD,1721587242
89,papao,-17.75,-149.55,22.590000000000032,69,90,11.6,PF,1721587243
90,mount isa,-20.7333,139.5,11.300000000000011,38,0,5.34,AU,1721587244
91,atafu village,-8.5421,-172.5159,28.430000000000007,75,14,9.27,TK,1721587245
92,kapa'a,22.0752,-159.319,26.720000000000027,70,43,2.68,US,1721587246
93,hermanus,-34.4187,19.2345,6.0,75,0,1.27,ZA,1721587247
94,mlimba,-8.8,35.8167,20.99000000000001,69,2,1.58,TZ,1721587249
95,vysokaya gora,55.9128,49.3017,17.58000000000004,96,94,4.63,RU,1721587251
96,teluknaga,-6.0989,106.6381,28.27000000000004,78,87,1.34,ID,1721587252
97,kaa-khem,51.6833,94.7333,17.110000000000014,87,100,2.15,RU,1721587253
98,moramanga,-18.9333,48.2,11.560000000000002,98,8,0.3,MG,1721587254
99,al mutayrifi,25.4788,49.5576,33.43000000000001,25,100,1.36,SA,1721587255
100,anadyr,64.75,177.4833,10.560000000000002,87,100,1.79,RU,1721587257
101,fort bragg,35.139,-79.006,31.78000000000003,73,92,1.92,US,1721587258
102,auburn,47.3073,-122.2284,22.730000000000018,41,86,2.72,US,1721586572
103,urucara,-2.5364,-57.76,35.59000000000003,33,54,2.14,BR,1721587260
104,ciudad lazaro cardenas,17.9583,-102.2,30.560000000000002,63,88,4.89,MX,1721587261
105,castillos,-34.1667,-53.8333,19.430000000000007,75,85,2.92,UY,1721587262
106,yokadouma,3.5167,15.05,22.74000000000001,82,65,0.46,CM,1721587263
107,tolanaro,-25.0319,46.9987,19.07000000000005,87,91,1.38,MG,1721587265
108,magadan,59.5667,150.8,13.010000000000048,93,100,1.51,RU,1721587266
109,palmas,-10.2128,-48.3603,34.0,21,10,3.26,BR,1721587051
110,zhosaly,45.4878,64.0781,28.58000000000004,33,13,4.5,KZ,1721587269
111,bubaque,11.2833,-15.8333,27.02000000000004,84,100,6.85,GW,1721587270
112,adam,22.3756,57.5233,32.79000000000002,47,13,3.79,OM,1721587271
113,tarifa,36.0139,-5.607,21.689999999999998,82,0,4.57,ES,1721587272
114,stanley,54.868,-1.6985,16.510000000000048,71,60,2.82,GB,1721587273
115,tayu,-6.5397,111.0518,23.24000000000001,83,100,3.8,ID,1721587274
116,lynn haven,30.2455,-85.6483,29.460000000000036,73,75,5.12,US,1721587276
117,isafjordur,66.0755,-23.124,4.980000000000018,96,98,4.19,IS,1721587277
118,jamestown,42.097,-79.2353,27.230000000000018,50,100,1.34,US,1721587278
119,ola,59.5833,151.2833,12.82000000000005,94,100,1.41,RU,1721587279
120,jinjing,24.575,118.5972,28.640000000000043,82,4,2.36,CN,1721587280
121,whitehorse,60.7161,-135.0538,23.390000000000043,42,52,1.02,CA,1721587281
122,sena madureira,-9.0656,-68.6569,36.83000000000004,25,17,0.81,BR,1721587282
123,colonia,50.9333,6.95,23.860000000000014,74,10,2.89,DE,1721587283
124,labrador city,52.9463,-66.9114,11.770000000000039,59,98,16.09,CA,1721587211
125,taltal,-25.4,-70.4833,15.730000000000018,66,0,2.53,CL,1721587286
126,enewetak,11.3474,162.3373,28.390000000000043,79,96,7.05,MH,1721587287
127,ulsteinvik,62.3432,5.8487,18.879999999999995,88,100,4.02,NO,1721587288
128,weno,7.4515,151.8468,28.57000000000005,80,100,5.14,FM,1721587289
129,kavaratti,10.5669,72.642,27.340000000000032,88,100,5.08,IN,1721587290
130,nar'yan-mar,67.6713,53.087,10.710000000000036,67,90,2.04,RU,1721587291
131,al hawatah,13.4167,34.6333,26.650000000000034,71,74,4.72,SD,1721587293
132,iskateley,67.6803,53.1512,10.689999999999998,67,91,2.08,RU,1721587294
133,kendari,-3.945,122.4989,23.04000000000002,96,83,0.76,ID,1721587295
134,huarmey,-10.0681,-78.1522,20.05000000000001,67,0,5.56,PE,1721587296
135,erbil,36.1926,44.0106,35.59000000000003,20,0,3.11,IQ,1721587297
136,pasuquin,18.3328,120.6177,27.170000000000016,81,100,1.73,PH,1721587298
137,port augusta,-32.5,137.7667,8.480000000000018,50,0,3.34,AU,1721587299
138,gokwe,-18.2048,28.9349,17.390000000000043,27,0,1.82,ZW,1721587300
139,dhulia,20.9,74.7833,26.510000000000048,81,100,7.74,IN,1721587302
140,belyy yar,53.6039,91.3903,16.600000000000023,97,100,5.26,RU,1721587303
141,la'ie,21.6477,-157.9253,27.470000000000027,78,100,0.89,US,1721587305
142,crane,31.3974,-102.3501,32.83000000000004,33,100,4.21,US,1721587306
143,san julian,21.0167,-102.1667,23.33000000000004,51,58,2.78,MX,1721587307
144,kamensk-ural'skiy,56.4185,61.9329,14.670000000000016,76,100,4.7,RU,1721587308
145,udachny,66.4167,112.4,15.720000000000027,93,100,6.33,RU,1721587310
146,lepsy,46.235,78.9456,25.700000000000045,35,0,2.3,KZ,1721587311
147,klaksvik,62.2266,-6.589,11.28000000000003,87,85,10.32,FO,1721587312
148,sahibganj,25.25,87.65,28.400000000000034,84,78,5.47,IN,1721587313
149,thompson,55.7435,-97.8558,31.610000000000014,30,1,1.52,CA,1721587314
150,quellon,-43.1167,-73.6167,11.32000000000005,74,9,0.62,CL,1721587315
151,san luis de la loma,17.2706,-100.8939,27.430000000000007,82,100,2.98,MX,1721587317
152,shingu,33.7333,135.9833,25.5,94,35,2.81,JP,1721587318
153,fengxiang,47.5833,130.8333,18.470000000000027,92,0,3.48,CN,1721587319
154,lihue,21.9789,-159.3672,26.310000000000002,84,58,5.26,US,1721587320
155,petropavlovsk-kamchatsky,53.0452,158.6483,11.990000000000009,85,93,0.32,RU,1721587321
156,lakshmeshwar,15.1333,75.4667,21.910000000000025,91,100,6.86,IN,1721587322
157,shimanovsk,52.0,127.7,16.350000000000023,98,22,2.35,RU,1721587323
158,nova sintra,14.8667,-24.7167,24.970000000000027,77,0,6.59,CV,1721587325
159,antsiranana,-12.2787,49.2917,22.390000000000043,84,4,5.39,MG,1721587326
160,margaret river,-33.95,115.0667,16.950000000000045,66,53,9.47,AU,1721587327
161,port mathurin,-19.6833,63.4167,22.75,70,8,6.25,MU,1721587328
162,port alfred,-33.5906,26.891,13.04000000000002,68,8,2.54,ZA,1721587329
163,chibougamau,49.9168,-74.3659,13.160000000000025,72,100,5.51,CA,1721587330
164,ad dilam,23.9915,47.1627,37.450000000000045,11,100,2.6,SA,1721587332
165,santa rita,-7.1139,-34.9781,24.870000000000005,81,19,6.26,BR,1721587333
166,new norfolk,-42.7826,147.0587,12.180000000000007,95,100,0.61,AU,1721587334
167,tamanrasset,22.785,5.5228,32.74000000000001,21,100,4.05,DZ,1721587335
168,kapuskasing,49.4169,-82.4331,22.470000000000027,38,22,2.94,CA,1721587336
169,manokwari,-0.8667,134.0833,24.100000000000023,93,100,3.05,ID,1721587337
170,wailua homesteads,22.0669,-159.378,25.970000000000027,84,53,2.68,US,1721587338
171,laguna,38.421,-121.4238,31.970000000000027,29,0,4.34,US,1721587197
172,la rioja,42.25,-2.5,14.210000000000036,64,5,2.65,ES,1721587341
173,ohara,35.25,140.3833,25.52000000000004,96,29,5.46,JP,1721587342
174,arraial do cabo,-22.9661,-42.0278,21.200000000000045,71,0,5.38,BR,1721587343
175,plastun,44.7561,136.2939,18.03000000000003,97,2,2.26,RU,1721587344
176,susuman,62.7833,148.1667,11.770000000000039,93,100,0.67,RU,1721587346
177,remire-montjoly,4.9167,-52.2667,27.920000000000016,80,17,6.54,GF,1721587348
178,mahdalynivka,48.921,34.9156,26.210000000000036,24,100,3.53,UA,1721587349
179,vorkuta,67.5,64.0,9.230000000000018,65,100,3.43,RU,1721587350
180,eraan,9.0629,117.7016,26.08000000000004,83,100,3.67,PH,1721587352
181,kourou,5.1552,-52.6478,28.180000000000007,79,30,2.55,GF,1721587353
182,cooma,-36.2333,149.1333,4.2900000000000205,87,79,2.53,AU,1721587354
183,guerrero negro,27.9769,-114.0611,28.340000000000032,53,100,3.32,MX,1721587355
184,port lincoln,-34.7333,135.8667,12.640000000000043,91,94,6.9,AU,1721587356
185,moranbah,-22.0016,148.0466,8.260000000000048,54,0,4.4,AU,1721587357
186,al kharj,24.155,47.3346,37.160000000000025,12,100,2.54,SA,1721587072
187,vyazemskiy,47.5378,134.7525,18.58000000000004,96,8,1.65,RU,1721587360
188,kholmsk,47.0511,142.0569,21.02000000000004,96,100,6.87,RU,1721587361
189,lamar,33.6668,-95.5836,29.379999999999995,70,64,2.69,US,1721587362
190,onega,63.9061,38.1404,14.140000000000043,66,7,3.14,RU,1721587363
191,beyneu,45.3167,55.2,28.08000000000004,43,100,6.05,KZ,1721587364
192,luoyang,34.6836,112.4536,28.08000000000004,90,100,2.47,CN,1721587365
193,uturoa,-16.7333,-151.4333,24.80000000000001,56,99,9.74,PF,1721587366
194,vadso,70.0744,29.7487,16.439999999999998,78,100,1.21,NO,1721587367
195,port douglas,-16.4833,145.4667,17.930000000000007,71,11,2.6,AU,1721587369
196,rio grande,-32.035,-52.0986,18.860000000000014,77,100,1.78,BR,1721587085
197,la passe,45.5549,-0.8967,20.010000000000048,73,89,7.03,FR,1721587371
198,sao martinho,39.5144,-9.1311,22.28000000000003,83,0,3.58,PT,1721587372
199,namibe,-15.1961,12.1522,17.80000000000001,83,95,2.04,AO,1721587373
200,nadym,65.5333,72.5167,9.460000000000036,60,0,3.46,RU,1721587374
201,pisco,-13.7,-76.2167,18.340000000000032,69,2,2.86,PE,1721587375
202,coquimbo,-29.9533,-71.3436,13.050000000000011,77,100,0.46,CL,1721587323
203,west fargo,46.875,-96.9004,29.99000000000001,55,5,1.34,US,1721587378
204,garoowe,8.4054,48.4845,27.410000000000025,57,71,13.24,SO,1721587379
205,port-gentil,-0.7193,8.7815,23.860000000000014,77,10,3.91,GA,1721587380
206,richmond,37.5538,-77.4603,32.860000000000014,62,100,1.34,US,1721586866
207,howard springs,-12.497,131.047,18.82000000000005,75,4,2.64,AU,1721587383
208,touros,-5.1989,-35.4608,26.340000000000032,73,4,7.13,BR,1721587384
209,faro,37.0194,-7.9322,27.879999999999995,58,0,4.45,PT,1721587385
210,harstad,68.799,16.5293,24.340000000000032,59,5,3.58,NO,1721587387
211,miracema do tocantins,-9.5618,-48.3967,34.64000000000004,18,99,3.97,BR,1721587388
212,kharp,66.8014,65.8081,10.430000000000007,66,60,2.31,RU,1721587389
213,luba,3.4568,8.5547,25.100000000000023,82,63,3.0,GQ,1721587391
214,keflavik,64.0049,-22.5624,9.810000000000002,84,8,9.62,IS,1721587392
215,tindouf,27.6711,-8.1474,42.32000000000005,8,0,2.51,DZ,1721587393
216,kabalo,-6.05,26.9167,28.83000000000004,31,0,0.47,CD,1721587395
217,potosi,-19.5836,-65.7531,14.050000000000011,13,0,4.76,BO,1721587396
218,ma'rib,15.4591,45.3253,34.98000000000002,10,100,3.46,YE,1721587397
219,primorsk,46.7348,36.3443,26.08000000000004,45,25,2.25,UA,1721587399
220,pimenta bueno,-11.6725,-61.1936,36.94,15,81,1.57,BR,1721587400
221,argostolion,38.1811,20.489,25.560000000000002,84,0,2.06,GR,1721587401
222,puerto madryn,-42.7692,-65.0385,16.370000000000005,29,0,5.41,AR,1721587402
223,richards bay,-28.783,32.0377,17.720000000000027,83,92,1.56,ZA,1721587403
224,lazaro cardenas,17.9583,-102.2,30.560000000000002,63,88,4.89,MX,1721587404
225,rongelap,11.1635,166.8941,28.120000000000005,82,17,6.98,MH,1721587405
226,gedzhukh,42.1279,48.0647,24.07000000000005,57,8,2.23,RU,1721587407
227,frontera,26.9333,-101.45,31.610000000000014,48,0,2.24,MX,1721587155
228,sitka,57.0531,-135.33,14.920000000000016,88,100,1.37,US,1721587409
229,pedernales,18.0384,-71.744,31.910000000000025,61,57,3.76,DO,1721587410
230,kalengwa,-13.4659,25.0027,17.870000000000005,27,8,2.23,ZM,1721587411
231,aral,40.5156,81.2636,28.310000000000002,29,97,4.69,CN,1721587412
232,saint-jean-de-luz,43.3891,-1.6581,19.950000000000045,80,93,3.12,FR,1721587413
233,aswan,24.0934,32.907,37.200000000000045,13,4,4.56,EG,1721587193
234,broome,42.2506,-75.833,28.82000000000005,47,100,1.79,US,1721587416
235,betioky,-23.7167,44.3833,18.460000000000036,64,0,4.28,MG,1721587417
236,turinskaya sloboda,57.6232,64.3858,11.310000000000002,87,100,3.23,RU,1721587418
237,kitgum,3.2783,32.8867,19.75,95,100,1.33,UG,1721587419
238,nishinoomote,30.7333,131.0,27.960000000000036,86,0,2.91,JP,1721587420
239,lensk,60.7253,114.9278,17.090000000000032,76,8,1.49,RU,1721587421
240,roma,43.2128,-75.4557,28.310000000000002,60,91,0.89,US,1721587422
241,kruisfontein,-34.0033,24.7314,7.710000000000036,84,0,2.14,ZA,1721587423
242,sur,22.5667,59.5289,33.53000000000003,52,100,5.22,OM,1721587425
243,kappeln,54.6612,9.9313,19.810000000000002,95,100,8.14,DE,1721587426
244,port macquarie,-31.4333,152.9167,8.370000000000005,75,0,0.89,AU,1721587427
245,rio verde de mato grosso,-18.9181,-54.8442,32.85000000000002,15,0,3.07,BR,1721587428
246,ihsaniye,40.6909,29.8347,26.900000000000034,67,0,3.09,TR,1721587429
247,okha,53.5739,142.9478,13.840000000000032,98,100,1.51,RU,1721587430
248,'alaqahdari dishu,30.4374,63.313,35.02000000000004,11,91,6.73,AF,1721587431
249,sungai penuh,-2.0833,101.3833,19.470000000000027,95,94,0.46,ID,1721587432
250,acapulco de juarez,16.8634,-99.8901,26.140000000000043,72,100,1.8,MX,1721587420
251,whitecourt,54.1502,-115.6855,31.24000000000001,39,42,3.76,CA,1721587435
252,bucerias,20.75,-105.3333,31.100000000000023,69,71,2.1,MX,1721587437
253,praia da vitoria,38.7333,-27.0667,26.53000000000003,77,70,1.29,PT,1721587438
254,afif,23.9065,42.9172,33.28000000000003,11,100,5.7,SA,1721587441
255,acara,-1.9608,-48.1967,35.04000000000002,28,7,2.03,BR,1721587442
256,lebu,-37.6167,-73.65,10.79000000000002,61,4,3.34,CL,1721587443
257,pijijiapan,15.7011,-93.23,30.850000000000023,71,78,3.68,MX,1721587218
258,mahina,-17.5065,-149.489,25.420000000000016,47,62,11.61,PF,1721587445
259,amga,60.8953,131.9608,10.920000000000016,97,22,0.58,RU,1721587446
260,seaside,36.6111,-121.8516,17.180000000000007,83,13,3.13,US,1721587161
261,saint-philippe,-21.3585,55.7679,18.390000000000043,82,35,2.35,RE,1721587448
262,tazovsky,67.4667,78.7,5.760000000000048,70,8,3.67,RU,1721587450
263,balkanabat,39.5108,54.3671,32.93000000000001,28,33,4.44,TM,1721587451
264,kanniyakumari,8.0833,77.5667,26.03000000000003,78,100,6.19,IN,1721587452
265,st. john's,47.5649,-52.7093,21.610000000000014,65,100,5.33,CA,1721587252
266,la ronge,55.1001,-105.2842,25.350000000000023,49,39,3.57,CA,1721587454
267,baharly,38.4362,57.4316,32.870000000000005,18,0,0.77,TM,1721587455
268,camargo,27.6667,-105.1667,32.54000000000002,26,95,3.57,MX,1721587456
269,petawawa,45.9001,-77.3328,22.660000000000025,47,0,0.89,CA,1721587334
270,santa vitoria do palmar,-33.5189,-53.3681,17.150000000000034,81,97,2.09,BR,1721587460
271,greenville,35.6127,-77.3663,31.180000000000007,75,97,0.89,US,1721587461
272,fairfield,41.2668,-73.3162,30.420000000000016,52,100,1.39,US,1721587288
273,agropoli,40.3469,14.9966,24.930000000000007,74,0,1.22,IT,1721587463
274,dhromolaxia,34.8755,33.5868,29.840000000000032,84,0,0.89,CY,1721587464
275,encruzilhada do sul,-30.5439,-52.5219,18.700000000000045,83,100,2.19,BR,1721587465
276,port said,31.2565,32.2841,28.360000000000014,81,0,7.72,EG,1721587467
277,kalemie,-5.9475,29.1947,23.200000000000045,60,6,1.49,CD,1721587468
278,cockburn town,21.4612,-71.1419,28.32000000000005,83,100,7.59,TC,1721587469
279,road town,18.4167,-64.6167,27.54000000000002,74,1,8.87,VG,1721587470
280,klichaw,53.4928,29.3352,17.060000000000002,74,0,1.0,BY,1721587471
281,san salvador de jujuy,-24.1946,-65.2971,18.700000000000045,46,0,3.86,AR,1721587222
282,kununurra,-15.7667,128.7333,15.230000000000018,32,58,3.14,AU,1721587473
283,boa vista,2.8197,-60.6733,29.33000000000004,67,80,0.87,BR,1721587474
284,cidreira,-30.1811,-50.2056,19.150000000000034,74,100,1.46,BR,1721587476
285,lata,40.1629,-8.3327,25.510000000000048,56,0,2.3,PT,1721587477
286,mawu,34.4307,104.9176,16.52000000000004,97,99,1.47,CN,1721587478
287,enriquillo,17.9,-71.2333,30.370000000000005,65,3,5.56,DO,1721587479
288,glendive,47.1053,-104.7125,32.610000000000014,24,2,1.25,US,1721587480
289,vila franca do campo,37.7167,-25.4333,25.04000000000002,73,33,2.71,PT,1721587481
290,semey,50.4111,80.2275,20.850000000000023,66,92,2.08,KZ,1721587482
291,belabo,4.9333,13.3,21.590000000000032,88,100,0.7,CM,1721587483
292,nguigmi,14.2495,13.1092,31.560000000000002,51,90,1.36,NE,1721587485
293,pokhara,28.2333,83.9833,22.660000000000025,89,100,0.52,NP,1721587141
294,kodinsk,58.6881,99.1844,16.710000000000036,96,0,1.14,RU,1721587488
295,alotau,-10.3069,150.4462,22.390000000000043,96,98,1.74,PG,1721587489
296,pedro juan caballero,-22.5472,-55.7333,28.05000000000001,23,0,3.08,PY,1721587430
297,shijiazhuang,38.0414,114.4786,29.480000000000018,84,4,0.52,CN,1721587491
298,celestun,20.8667,-90.4,32.60000000000002,60,100,4.31,MX,1721587493
299,palu,-0.8917,119.8707,24.29000000000002,97,97,1.48,ID,1721587494
300,santana,-0.0583,-51.1817,32.410000000000025,47,24,2.63,BR,1721587495
301,ubauro,28.1652,69.7289,33.55000000000001,57,100,8.15,PK,1721587496
302,kainantu,-6.2887,145.8655,15.900000000000034,99,98,1.07,PG,1721587497
303,nagqu,31.5,92.0,7.7000000000000455,93,100,1.38,CN,1721587498
304,suntar,62.1444,117.6319,16.5,58,96,2.44,RU,1721587499
305,nizhniy odes,63.6445,54.856,11.379999999999995,58,10,2.57,RU,1721587500
306,hongch'on,37.6918,127.8857,22.060000000000002,98,100,1.29,KR,1721587502
307,kodiak,57.79,-152.4072,13.32000000000005,81,98,2.48,US,1721587503
308,la sarre,48.8002,-79.1996,21.0,47,77,3.48,CA,1721587504
309,hobyo,5.3505,48.5268,24.510000000000048,85,100,12.44,SO,1721587506
310,williamsport,41.2412,-77.0011,30.610000000000014,46,100,1.79,US,1721587490
311,bikenibeu village,1.3673,173.1241,28.670000000000016,68,97,8.15,KI,1721587508
312,new plymouth,-39.0667,174.0833,9.340000000000032,100,80,2.58,NZ,1721587509
313,barranca,-10.75,-77.7667,18.710000000000036,69,17,5.25,PE,1721587511
314,puerto deseado,-47.7503,-65.8938,10.79000000000002,60,100,9.81,AR,1721587512
315,lethem,3.3803,-59.7968,28.439999999999998,75,49,1.26,GY,1721587513
316,flying fish cove,-10.4217,105.6791,26.200000000000045,67,75,10.16,CX,1721587514
317,alofi,-19.0595,-169.9187,24.610000000000014,72,44,8.56,NU,1721587515
318,salair,54.2312,85.7972,15.080000000000041,96,100,2.22,RU,1721587516
319,corbelia,-24.7989,-53.3067,23.33000000000004,42,65,0.94,BR,1721587517
320,hadibu,12.65,54.0333,26.460000000000036,80,100,10.75,YE,1721587519
321,okakarara,-20.5833,17.4333,16.920000000000016,15,45,4.32,NA,1721587520
322,severo-yeniseyskiy,60.3725,93.0408,13.980000000000018,96,20,1.36,RU,1721587521
323,bria,6.5423,21.9863,21.02000000000004,95,100,1.68,CF,1721587522
324,taoudenni,22.6783,-3.9836,42.74000000000001,7,10,3.91,ML,1721587523
325,arawa,-6.2132,155.5367,24.730000000000018,89,6,2.06,PG,1721587524
326,bengkulu,-3.8004,102.2655,24.55000000000001,91,67,1.95,ID,1721587525
327,halifax,44.6453,-63.5724,25.189999999999998,73,77,1.34,CA,1721587006
328,barrouallie,13.2333,-61.2667,26.760000000000048,74,0,5.02,VC,1721587528
329,bowen,-20.0167,148.2333,12.150000000000034,58,0,3.65,AU,1721587530
330,zelenokumsk,44.4069,43.8806,24.590000000000032,44,0,1.92,RU,1721587263
331,motygino,58.1831,94.7592,15.810000000000002,88,5,0.2,RU,1721587532
332,tamiahua,21.2667,-97.45,29.379999999999995,70,100,2.89,MX,1721587533
333,tabou,4.423,-7.3528,24.33000000000004,83,100,5.12,CI,1721587536
334,sinabang,2.4803,96.3801,27.310000000000002,81,100,2.39,ID,1721587537
335,nadi,-17.8,177.4167,21.360000000000014,88,1,1.74,FJ,1721587538
336,cabo san lucas,22.8909,-109.9124,31.210000000000036,62,2,6.58,MX,1721587365
337,xining,36.6167,101.7667,17.110000000000014,85,100,1.19,CN,1721587540
338,uvalde,29.3669,-99.767,37.450000000000045,26,100,2.07,US,1721587541
339,saudarkrokur,65.7461,-19.6394,7.010000000000048,96,100,1.98,IS,1721587543
340,metlili chaamba,32.2667,3.6333,38.02000000000004,11,4,5.82,DZ,1721587544
341,bambanglipuro,-7.95,110.2833,23.010000000000048,89,92,2.45,ID,1721587545
342,kattivakkam,13.2167,80.3167,31.74000000000001,68,100,8.2,IN,1721587546
343,minas de marcona,-15.2119,-75.1103,14.970000000000027,58,4,8.63,PE,1721587547
344,chimbarongo,-34.7,-71.05,17.170000000000016,62,0,1.74,CL,1721587548
345,kijang,35.2442,129.2139,23.150000000000034,93,0,3.48,KR,1721587549
346,inhambane,-23.865,35.3833,20.560000000000002,82,100,2.24,MZ,1721587550
347,afaahiti,-17.75,-149.2833,24.480000000000018,71,100,10.68,PF,1721587552
348,bereznik,62.8551,42.7072,14.379999999999995,61,15,2.35,RU,1721587553
349,whitby,54.4877,-0.615,18.510000000000048,68,0,1.34,GB,1721587347
350,vernon,50.2581,-119.2691,37.48000000000002,17,0,1.07,CA,1721587556
351,magistral'nyy,56.1725,107.4458,19.210000000000036,72,100,1.15,RU,1721587559
352,kalaleh,37.3807,55.4916,26.180000000000007,63,85,2.46,IR,1721587560
353,puerto el triunfo,13.2833,-88.55,30.54000000000002,69,52,3.68,SV,1721587562
354,kulhudhuffushi,6.6221,73.07,28.24000000000001,82,58,5.16,MV,1721587563
355,antonio enes,-16.2325,39.9086,22.060000000000002,73,3,3.69,MZ,1721587564
356,kristiansund,63.1115,7.732,17.850000000000023,100,100,1.46,NO,1721587565
357,las heras,-46.5419,-68.9359,8.450000000000045,73,0,10.19,AR,1721587326
358,chui,-33.6971,-53.4616,19.150000000000034,76,57,2.6,UY,1721587567
359,dunedin,-45.8742,170.5036,7.110000000000014,76,100,5.36,NZ,1721587569
360,fortuna,40.5982,-124.1573,16.629999999999995,91,100,1.79,US,1721587570
361,fort st. john,56.2499,-120.8529,25.360000000000014,50,51,3.11,CA,1721587571
362,okulovka,58.4008,33.2908,15.610000000000014,99,100,1.61,RU,1721587572
363,gagliano del capo,39.8442,18.3695,28.78000000000003,73,0,4.28,IT,1721587575
364,khandallah,-41.2467,174.7906,9.210000000000036,85,100,2.24,NZ,1721587576
365,ostroleka,53.0862,21.5757,24.25,50,48,3.6,PL,1721587577
366,mandvi,22.8333,69.3667,28.900000000000034,88,100,6.2,IN,1721587578
367,al qusayr,34.5091,36.5798,27.77000000000004,43,0,2.42,SY,1721587579
368,constantia,44.1833,28.65,24.140000000000043,71,90,3.36,RO,1721587580
369,sathupalli,17.2497,80.869,24.379999999999995,94,100,5.94,IN,1721587581
370,kailua-kona,19.6406,-155.9956,28.49000000000001,76,5,3.24,US,1721587582
371,noumea,-22.2763,166.4572,20.0,99,15,3.07,NC,1721587584
372,lakhnadon,22.6,79.6,26.75,80,100,2.25,IN,1721587585
373,novodvinsk,64.4165,40.8122,14.120000000000005,61,14,2.0,RU,1721587586
374,buala,-8.145,159.5921,26.29000000000002,85,50,3.27,SB,1721587587
375,viedma,-40.8135,-62.9967,15.379999999999995,27,8,6.71,AR,1721587313
376,gadzhiyevo,69.2551,33.3362,18.850000000000023,69,89,1.12,RU,1721587589
377,douglas,41.3,-96.167,27.600000000000023,63,55,1.34,US,1721587516
378,luanda,-8.8368,13.2343,20.160000000000025,87,0,4.81,AO,1721587591
379,qujing,25.4833,103.7833,17.49000000000001,91,89,1.97,CN,1721587593
380,rodental,50.2833,11.0667,23.58000000000004,80,42,1.54,DE,1721587594
381,carutapera,-1.195,-46.02,28.930000000000007,66,22,4.97,BR,1721587595
382,san patricio,28.017,-97.5169,33.84000000000003,50,38,4.21,US,1721587596
383,i-n-salah,27.1935,2.4607,40.03000000000003,8,0,5.63,DZ,1721587597
384,timimoun,29.2639,0.231,42.460000000000036,8,0,4.31,DZ,1721587599
385,masterton,-40.9597,175.6575,9.379999999999995,96,100,1.5,NZ,1721587601
386,belo sur tsiribihina,-19.7,44.55,20.060000000000002,82,0,2.0,MG,1721587602
387,barra de santo antonio,-9.4047,-35.5072,25.05000000000001,67,16,5.49,BR,1721587603
388,taro,-8.3862,115.28,17.83000000000004,100,70,0.73,ID,1721587604
389,acarau,-2.8856,-40.12,28.710000000000036,61,7,8.77,BR,1721587605
390,bikaner,28.0167,73.3,37.410000000000025,40,100,6.4,IN,1721587606
391,kalach,50.4258,41.0261,24.5,41,100,2.96,RU,1721587607
392,caleta de carquin,-11.0925,-77.6267,18.930000000000007,71,22,5.41,PE,1721587609
393,lompoc,34.6391,-120.4579,24.77000000000004,51,0,5.02,US,1721587610
394,walvis bay,-22.9575,14.5053,13.379999999999995,89,14,2.83,NA,1721587611
395,mogadishu,2.0371,45.3438,24.74000000000001,86,100,7.95,SO,1721587612
396,kone,-21.0595,164.8658,15.950000000000045,85,18,1.58,NC,1721587614
397,denison,33.7557,-96.5367,30.939999999999998,51,99,2.93,US,1721587519
398,nafplio,37.5683,22.8053,28.54000000000002,50,0,1.58,GR,1721587616
399,saint-pierre,-21.3393,55.4781,19.760000000000048,80,0,2.1,RE,1721587341
400,malanje,-9.5402,16.341,22.02000000000004,16,7,0.96,AO,1721587618
401,zaragoza,41.6561,-0.8773,23.600000000000023,46,100,7.15,ES,1721587619
402,eastham,41.8301,-69.9739,27.310000000000002,68,33,4.66,US,1721587566
403,arteche,12.2645,125.4048,26.25,87,100,3.38,PH,1721587622
404,modimolle,-24.7,28.4,13.740000000000009,25,100,0.53,ZA,1721587623
405,sakaraha,-22.9,44.5333,15.760000000000048,48,0,1.02,MG,1721587624
406,tazacorte,28.629,-17.9293,24.25,77,0,3.76,ES,1721587625
407,cinisi,38.1562,13.1073,30.340000000000032,50,1,4.17,IT,1721587627
408,nieuw amsterdam,5.8833,-55.0833,27.129999999999995,83,56,2.4,SR,1721587628
409,paracuru,-3.41,-39.0306,27.28000000000003,69,0,7.5,BR,1721587629
410,ganghwa-gun,37.7472,126.4856,23.410000000000025,98,100,2.08,KR,1721587630
411,were ilu,10.6,39.4333,14.160000000000025,83,37,1.71,ET,1721587631
412,montepuez,-13.1256,38.9997,18.360000000000014,60,12,3.11,MZ,1721587632
413,katsuura,35.1333,140.3,25.640000000000043,97,22,6.23,JP,1721587634
414,kerikeri,-35.2268,173.9474,12.689999999999998,86,80,3.93,NZ,1721587635
415,tinogasta,-28.0632,-67.5649,13.810000000000002,39,0,4.32,AR,1721587582
416,san andres,12.5847,-81.7006,28.660000000000025,82,90,7.13,CO,1721587381
417,narrabri,-30.3167,149.7833,3.6200000000000045,92,0,2.94,AU,1721587638
418,along,28.1667,94.7667,22.29000000000002,99,100,0.87,IN,1721587639
419,mount gambier,-37.8333,140.7667,11.730000000000018,96,66,4.48,AU,1721587640
420,al jawf,29.5,38.75,31.75,15,0,2.59,SA,1721587641
421,nizhniy kuranakh,58.8353,125.4869,13.629999999999995,90,15,1.15,RU,1721587643
422,ginir,7.1333,40.7,17.160000000000025,76,54,4.19,ET,1721587645
423,fisterra,42.9049,-9.2629,21.120000000000005,77,0,9.35,ES,1721587646
424,sao joao da barra,-21.6403,-41.0511,22.340000000000032,66,0,5.11,BR,1721587647
425,goundam,16.4145,-3.6708,35.360000000000014,33,100,2.75,ML,1721587648
426,ebon,4.582,168.6964,28.560000000000002,79,45,7.36,MH,1721587649
427,isla mujeres,21.2311,-86.731,31.760000000000048,70,99,3.11,MX,1721587650
428,mokhsogollokh,61.4681,128.9203,14.100000000000023,96,2,1.19,RU,1721587651
429,yelm,46.942,-122.606,26.58000000000004,44,77,2.23,US,1721587653
430,vikhorevka,56.1201,101.1636,19.58000000000004,73,100,1.06,RU,1721587654
431,kimbe,-5.5502,150.1429,25.360000000000014,86,97,3.88,PG,1721587655
432,tura,25.5198,90.2201,25.189999999999998,93,100,2.94,IN,1721587656
433,georgievka,49.3314,81.5761,19.07000000000005,62,99,0.47,KZ,1721587657
434,mitchell,43.7094,-98.0298,27.870000000000005,60,12,4.02,US,1721587637
435,ancud,-41.8697,-73.8203,9.79000000000002,78,43,0.84,CL,1721587659
436,malango,-2.9627,119.9001,19.600000000000023,94,100,0.53,ID,1721587661
437,luderitz,-26.6481,15.1594,14.060000000000002,75,73,4.34,NA,1721587662
438,arno,60.1167,18.6333,16.55000000000001,89,100,2.62,SE,1721587663
439,brookings,44.3114,-96.7984,27.430000000000007,67,32,1.16,US,1721587501
440,mar del plata,-38.0023,-57.5575,13.860000000000014,53,97,2.68,AR,1721587654
441,heroica ciudad de tlaxiaco,17.2667,-97.6833,20.450000000000045,71,99,1.61,MX,1721587666
442,malvan,16.0667,73.4667,27.340000000000032,85,100,8.8,IN,1721587667
443,port hedland,-20.3167,118.5667,19.120000000000005,34,4,6.17,AU,1721587668
444,vodnyy,63.5046,53.4095,11.670000000000016,58,7,1.98,RU,1721587670
445,toyooka,35.5333,134.8333,24.370000000000005,95,3,1.76,JP,1721587671
446,dryden,49.7833,-92.7503,26.80000000000001,28,14,1.55,CA,1721587672
447,yeghegnadzor,39.7639,45.3324,20.83000000000004,65,0,2.32,AM,1721587673
448,zonguldak,41.25,31.8333,19.660000000000025,86,0,0.53,TR,1721587674
449,puerto baquerizo moreno,-0.9,-89.6,21.450000000000045,78,23,7.29,EC,1721587675
450,sadjoavato,-12.6334,49.349,19.24000000000001,93,5,1.91,MG,1721587676
451,mil'kovo,55.6078,37.7956,20.910000000000025,60,100,2.48,RU,1721587677
452,cooper's town,26.8667,-77.5167,28.77000000000004,76,5,6.36,BS,1721587679
453,eydhafushi,5.1033,73.0708,28.400000000000034,79,100,3.03,MV,1721587680
454,shahrisabz,39.0578,66.8342,27.33000000000004,26,0,4.02,UZ,1721587681
455,caldas,6.0911,-75.6357,27.05000000000001,61,81,4.92,CO,1721587682
456,kokopo,-4.352,152.2633,25.160000000000025,87,65,6.21,PG,1721587683
457,baturaja,-4.1333,104.1667,22.75,93,29,1.54,ID,1721587446
458,pesqueira,-8.3578,-36.6964,21.04000000000002,60,100,6.0,BR,1721587686
459,schleswig,54.5167,9.55,22.730000000000018,96,100,5.14,DE,1721587687
460,altai,46.3722,96.2583,14.78000000000003,61,37,2.36,MN,1721587688
461,paradip garh,20.3167,86.6167,28.120000000000005,81,24,6.31,IN,1721587690
462,amos,48.5669,-78.1162,18.850000000000023,48,97,3.23,CA,1721587504
463,fort morgan,40.2503,-103.8,28.28000000000003,26,44,5.32,US,1721587692
464,sisimiut,66.9395,-53.6735,8.110000000000014,68,100,2.11,GL,1721587694
465,margate,51.3813,1.3862,21.5,71,100,2.2,GB,1721587695
466,san antonio de pale,-1.4014,5.6325,23.610000000000014,74,0,2.64,GQ,1721587696
467,sao tome,0.3365,6.7273,23.99000000000001,77,14,2.34,ST,1721587697
468,lesnoy,57.6198,63.0784,11.980000000000018,78,100,3.35,RU,1721587698
469,kidal,18.4411,1.4078,34.93000000000001,34,97,5.89,ML,1721587699
470,westport,41.1415,-73.3579,31.03000000000003,53,88,0.45,US,1721587702
471,dawesville,30.9224,-84.0091,33.660000000000025,47,100,1.91,US,1721587703
472,junnar,19.2,73.8833,22.32000000000005,96,100,6.74,IN,1721587704
473,mangrol,21.1167,70.1167,27.920000000000016,88,100,8.61,IN,1721587705
474,kahama,-3.8333,32.6,26.28000000000003,35,100,0.55,TZ,1721587706
475,nyurba,63.2842,118.3319,17.55000000000001,57,100,2.88,RU,1721587707
476,kumeny,58.1089,49.9161,13.870000000000005,74,39,4.2,RU,1721587708
477,kegeyli shahar,42.7767,59.6078,28.680000000000007,31,100,4.37,UZ,1721587710
478,boende,-0.2167,20.8667,23.79000000000002,79,71,1.27,CD,1721587711
479,prince rupert,54.3161,-130.3201,15.480000000000018,89,100,1.15,CA,1721587712
480,guarapari,-20.6667,-40.4975,22.720000000000027,72,11,3.1,BR,1721587713
481,sittwe,20.15,92.9,27.670000000000016,86,100,8.31,MM,1721587715
482,chizhou,30.6578,117.4831,27.610000000000014,74,100,1.31,CN,1721587716
483,akureyri,65.6835,-18.0878,10.100000000000023,73,100,2.52,IS,1721587717
484,zaozersk,69.4005,32.4476,18.260000000000048,75,96,1.12,RU,1721587718
485,novaci,45.1833,23.6667,20.32000000000005,76,0,3.04,RO,1721587719
486,biltine,14.5333,20.9167,31.689999999999998,52,81,3.58,TD,1721587721
487,pangody,65.85,74.4859,9.240000000000009,62,0,3.62,RU,1721587722
488,ndele,8.4109,20.6473,21.350000000000023,96,96,1.11,CF,1721587723
489,hammerfest,70.6634,23.6821,18.150000000000034,74,94,0.93,NO,1721587724
490,villa del totoral,-30.8167,-63.7167,13.230000000000018,67,97,4.59,AR,1721587725
491,namtsy,62.7161,129.6658,14.300000000000011,91,56,1.4,RU,1721587726
492,sretensk,52.2453,117.7093,14.879999999999995,72,5,1.36,RU,1721587727
493,benghazi,32.1167,20.0667,28.610000000000014,63,0,3.6,LY,1721587729
494,yukhary-dashkesan,40.4947,46.0772,15.57000000000005,87,80,1.03,AZ,1721587730
495,lashkar gah,31.5938,64.3716,32.98000000000002,12,0,1.56,AF,1721587731
496,bac lieu,9.285,105.7244,25.960000000000036,86,62,4.01,VN,1721587732
497,mims,28.6653,-80.8448,36.129999999999995,58,100,3.74,US,1721587733
498,les cayes,18.2,-73.75,29.950000000000045,74,35,5.16,HT,1721587734
499,sabang,5.8933,95.3214,28.900000000000034,78,100,7.01,ID,1721587736
500,karachi,24.9056,67.0822,30.150000000000034,79,100,5.76,PK,1721587626
501,kuta,-8.7233,115.1723,25.24000000000001,78,92,5.26,ID,1721587738
502,derzhavinsk,51.1,66.3167,22.810000000000002,53,38,3.17,KZ,1721587739
503,pallasovka,50.05,46.8833,23.620000000000005,44,22,3.73,RU,1721587740
504,tromso,69.6496,18.957,21.730000000000018,66,5,1.93,NO,1721587741
505,ulety,51.3572,112.4849,19.120000000000005,66,100,1.25,RU,1721587742
506,port isabel,26.0734,-97.2086,32.24000000000001,58,1,7.31,US,1721587500
507,porto novo,6.4965,2.6036,24.160000000000025,84,24,3.67,BJ,1721587745
508,panaba,21.2833,-88.2667,33.14000000000004,58,100,3.71,MX,1721587746
509,kisangani,0.5167,25.2,22.610000000000014,84,25,0.48,CD,1721587747
510,turtas,58.9417,69.1325,15.660000000000025,76,100,2.56,RU,1721587748
511,gebeit,21.0667,36.3167,31.29000000000002,26,100,2.55,SD,1721587749
512,mindelo,16.8901,-24.9804,25.160000000000025,72,0,8.87,CV,1721587750
513,cotonou,6.3654,2.4183,24.57000000000005,83,51,5.27,BJ,1721587751
514,nova vicosa,-17.8919,-39.3719,24.75,61,24,3.89,BR,1721587753
515,loiza,18.4313,-65.8802,32.14000000000004,72,19,6.55,PR,1721587754
516,progreso,21.2833,-89.6667,34.5,90,100,5.13,MX,1721587513
517,ust-nera,64.5667,143.2,12.629999999999995,92,100,1.4,RU,1721587756
518,nueva helvecia,-34.3,-57.2333,14.220000000000027,88,100,3.87,UY,1721587757
519,yung shue wan,22.2333,114.1167,29.82000000000005,86,96,4.8,HK,1721587758
520,trairi,-3.2778,-39.2689,27.480000000000018,68,1,6.56,BR,1721587692
521,okhotsk,59.3833,143.3,11.75,95,100,3.13,RU,1721587760
522,atherton,53.5237,-2.4935,19.30000000000001,69,33,1.47,GB,1721587762
523,lebyazh'ye,55.2689,66.4947,15.370000000000005,96,97,2.93,RU,1721587763
524,new visayas,7.5233,125.6233,24.30000000000001,92,67,1.62,PH,1721587764
525,umm kaddadah,13.6017,26.6876,30.80000000000001,48,87,6.6,SD,1721587765
526,tefe,-3.3542,-64.7114,33.31,35,96,0.46,BR,1721587766
527,cannonvale,-20.2833,148.7,14.82000000000005,59,0,6.55,AU,1721587767
528,thunder bay,48.4001,-89.3168,22.49000000000001,39,12,4.07,CA,1721587768
529,cartagena,10.3997,-75.5144,30.680000000000007,70,21,5.46,CO,1721587616
530,boundiali,9.5217,-6.4869,23.99000000000001,88,100,2.54,CI,1721587771
531,gurupa,-1.405,-51.64,34.870000000000005,35,46,1.78,BR,1721587772
532,torghay,49.6339,63.4981,26.370000000000005,35,93,1.63,KZ,1721587773
533,coos bay,43.3665,-124.2179,18.510000000000048,80,94,4.4,US,1721587774
534,mao,39.8885,4.2658,24.730000000000018,63,0,11.78,ES,1721587776
535,ambasamudram,8.7,77.4667,26.920000000000016,73,100,2.78,IN,1721587777
536,khorixas,-20.3667,14.9667,15.980000000000018,43,100,0.9,NA,1721587778
537,afgooye,2.1381,45.1212,23.980000000000018,85,100,7.64,SO,1721587779
538,algarrobo,10.1869,-74.5753,38.84000000000003,32,6,2.37,CO,1721587780
539,ribera,37.4984,13.2642,30.32000000000005,38,5,1.97,IT,1721587781
540,kandahar,31.0,65.75,30.5,12,67,3.78,AF,1721587782
541,burang,30.25,81.1667,11.150000000000034,85,100,2.43,CN,1721587784
542,muisne,0.6,-80.0333,24.460000000000036,82,99,6.68,EC,1721587785
543,shohimardon,39.9839,71.8028,23.129999999999995,51,100,1.63,UZ,1721587786
544,lucapa,-8.4192,20.7447,23.75,19,13,1.47,AO,1721587787
545,pokrovsk,48.282,37.1758,26.0,29,100,3.26,UA,1721587788
546,tobruk,32.0836,23.9764,27.25,84,0,4.62,LY,1721587789
547,juan griego,11.0817,-63.9655,32.05000000000001,54,1,5.72,VE,1721587790
548,rosetta,31.4044,30.4164,27.80000000000001,78,0,4.54,EG,1721587791
549,three points,32.0767,-111.3137,37.400000000000034,33,27,1.15,US,1721587793
550,labytnangi,66.6572,66.4183,10.0,68,63,4.35,RU,1721587794
551,baragaon,25.4333,82.8167,33.47000000000003,55,100,4.99,IN,1721587795
552,jijiga,9.35,42.8,19.400000000000034,80,100,3.61,ET,1721587796
553,jiutai,44.1525,125.8328,22.08000000000004,98,100,2.32,CN,1721587797
554,mogocha,53.7333,119.7667,12.230000000000018,89,10,1.23,RU,1721587798
555,ixtapa,20.7,-105.2,30.680000000000007,69,76,1.34,MX,1721587799
556,tateyama,34.9833,139.8667,27.28000000000003,94,10,6.9,JP,1721587801
557,ankazobe,-18.3167,47.1167,13.460000000000036,56,35,2.51,MG,1721587802
558,migori,-1.0634,34.4731,19.390000000000043,82,85,0.77,KE,1721587803
559,torata,-17.0769,-70.8433,19.27000000000004,24,0,4.39,PE,1721587804
560,barcelos,41.5388,-8.6151,28.840000000000032,65,0,3.31,PT,1721587785
561,guiuan,11.0333,125.7247,28.980000000000018,76,100,6.36,PH,1721587806
562,beledweyne,4.7358,45.2036,25.920000000000016,59,100,10.29,SO,1721587807
563,shasta lake,40.6804,-122.3708,37.64000000000004,31,0,2.71,US,1721587809
564,bhudgaon,16.9,74.6,22.660000000000025,92,100,6.95,IN,1721587810
565,freetown,8.484,-13.2299,24.110000000000014,94,100,3.42,SL,1721587811
566,kuzhithurai,8.3167,77.1833,25.810000000000002,99,100,2.41,IN,1721587812
567,tucuma,-0.1833,-50.05,31.83000000000004,54,14,4.45,BR,1721587791
568,vale da amoreira,39.0697,-7.6985,29.090000000000032,29,0,6.23,PT,1721587814
569,tvoroyri,61.5556,-6.8111,10.950000000000045,89,53,9.82,FO,1721587815
570,sao miguel,-5.4667,-35.3667,25.82000000000005,76,15,7.78,BR,1721587817
571,orai,25.9833,79.4667,33.120000000000005,54,100,5.38,IN,1721587819
572,mstsislaw,54.0192,31.7257,16.5,83,5,1.0,BY,1721587820
573,monmouth,40.3001,-74.1663,31.870000000000005,60,100,4.5,US,1721587821
574,yorkton,51.2167,-102.4677,29.120000000000005,50,22,2.2,CA,1721587823
575,vanino,49.0869,140.2543,15.29000000000002,99,100,1.43,RU,1721587825
576,ayaviri,-14.8864,-70.5889,16.110000000000014,14,5,4.33,PE,1721587826
577,gorontalo,0.5412,123.0595,24.879999999999995,89,99,2.22,ID,1721587827
